[
  {
    "id": "de80086e-c576-4769-bdc0-0079c0183be3",
    "lat": 16.232353,
    "lng": -92.125961,
    "nombre": "1RO DE MAYO",
    "zona_id": "9ab54285-a79b-4f70-9ec0-68d3d1269112",
    "zona_nombre": "ZONA VERDE"
  },
  {
    "id": "f2eb0295-1748-426e-ae16-d8836dc6b103",
    "lat": 16.2822425,
    "lng": -92.0309926,
    "nombre": "1ro. de Mayo",
    "zona_id": null,
    "zona_nombre": null
  },
  {
    "id": "95a75791-5580-48b8-9263-569b5cb9d8a8",
    "lat": 16.234575,
    "lng": -92.141283,
    "nombre": "20 DE NOVIEMBRE",
    "zona_id": "9ab54285-a79b-4f70-9ec0-68d3d1269112",
    "zona_nombre": "ZONA VERDE"
  },
  {
    "id": "b77eb280-1116-4e7a-960f-7acabe236a62",
    "lat": 16.231036,
    "lng": -92.1316554,
    "nombre": "20 de Noviembre 2a Sección",
    "zona_id": "9ab54285-a79b-4f70-9ec0-68d3d1269112",
    "zona_nombre": "ZONA VERDE"
  },
  {
    "id": "0856f62b-dff9-460e-ada1-c003970f426f",
    "lat": 16.2586586,
    "lng": -92.1125019,
    "nombre": "27 DE JUNIO",
    "zona_id": "ccea8427-77b6-4a64-b48e-dce4b672bca5",
    "zona_nombre": "ZONA NARANJA"
  },
  {
    "id": "0b9e75ed-d776-43a7-8946-8f183f29c798",
    "lat": 16.2337119,
    "lng": -92.1447176,
    "nombre": "28 De Agosto",
    "zona_id": "9ab54285-a79b-4f70-9ec0-68d3d1269112",
    "zona_nombre": "ZONA VERDE"
  },
  {
    "id": "89e620f1-9788-44e5-9fea-80a3a16dd022",
    "lat": 16.2347403,
    "lng": -92.1339541,
    "nombre": "7 Esquinas",
    "zona_id": "9ab54285-a79b-4f70-9ec0-68d3d1269112",
    "zona_nombre": "ZONA VERDE"
  },
  {
    "id": "1ff25fd1-f7ee-4c4b-b9a0-ef7b7df1db3a",
    "lat": 16.2179329,
    "lng": -92.1147256,
    "nombre": "9 Estrellas",
    "zona_id": null,
    "zona_nombre": null
  },
  {
    "id": "1772e6ce-a41a-46d6-b4b2-6f523d465718",
    "lat": 16.2347403,
    "lng": -92.1339541,
    "nombre": "Abelardo L. Rodríguez",
    "zona_id": "9ab54285-a79b-4f70-9ec0-68d3d1269112",
    "zona_nombre": "ZONA VERDE"
  },
  {
    "id": "6750a47b-7c92-4666-8a1a-16df28e05e6e",
    "lat": 16.3093032,
    "lng": -92.1935453,
    "nombre": "Ajayaxh",
    "zona_id": null,
    "zona_nombre": null
  },
  {
    "id": "b402ba7d-4a1e-4c98-bbc9-df3cc7200f73",
    "lat": 16.2179329,
    "lng": -92.1147256,
    "nombre": "Ampliación Bugambilias",
    "zona_id": null,
    "zona_nombre": null
  },
  {
    "id": "0ebd83a6-9227-401b-a277-bb57298e5729",
    "lat": 16.239174,
    "lng": -92.1165533,
    "nombre": "ARBOLEDAS",
    "zona_id": "2cf9680e-0227-4899-b7ab-b36867720c87",
    "zona_nombre": "ZONA AZUL"
  },
  {
    "id": "1b338b57-4254-43ec-9868-537bab2f134d",
    "lat": 16.2393876,
    "lng": -92.1284535,
    "nombre": "ARENAL",
    "zona_id": "9ab54285-a79b-4f70-9ec0-68d3d1269112",
    "zona_nombre": "ZONA VERDE"
  },
  {
    "id": "7d5693e4-e5a2-47d6-bd34-58843b6161ae",
    "lat": 16.2347403,
    "lng": -92.1339541,
    "nombre": "Barrio",
    "zona_id": "9ab54285-a79b-4f70-9ec0-68d3d1269112",
    "zona_nombre": "ZONA VERDE"
  },
  {
    "id": "a12ace7a-0ee1-4b5d-b9a6-d9ca6d79ace6",
    "lat": 16.250113,
    "lng": -92.121589,
    "nombre": "BARRIO EL 25",
    "zona_id": null,
    "zona_nombre": null
  },
  {
    "id": "0ccad9ec-5968-453b-bbb3-fb08fc17c995",
    "lat": 16.2443499,
    "lng": -92.1337627,
    "nombre": "BELISARIO",
    "zona_id": "9ab54285-a79b-4f70-9ec0-68d3d1269112",
    "zona_nombre": "ZONA VERDE"
  },
  {
    "id": "2a44340d-e7d3-4292-81ec-c951b913042c",
    "lat": 16.2443499,
    "lng": -92.1337627,
    "nombre": "Belisario Dominguez",
    "zona_id": "9ab54285-a79b-4f70-9ec0-68d3d1269112",
    "zona_nombre": "ZONA VERDE"
  },
  {
    "id": "e3c72908-c652-4009-8d4c-d1c43410dfea",
    "lat": 16.2313205,
    "lng": -92.1266126,
    "nombre": "Belisario Domínguez",
    "zona_id": "9ab54285-a79b-4f70-9ec0-68d3d1269112",
    "zona_nombre": "ZONA VERDE"
  },
  {
    "id": "bf7814c2-e2c0-4ab3-a661-4c2d41fe72bb",
    "lat": 16.2368261,
    "lng": -92.1600791,
    "nombre": "Bella Vista",
    "zona_id": "2cf9680e-0227-4899-b7ab-b36867720c87",
    "zona_nombre": "ZONA AZUL"
  },
  {
    "id": "abf3e550-52f5-4303-b185-e112b9b50e17",
    "lat": 16.2179329,
    "lng": -92.1147256,
    "nombre": "BELLAVISTA",
    "zona_id": null,
    "zona_nombre": null
  },
  {
    "id": "1ee32745-532f-48dc-a1e4-f294aa73f18c",
    "lat": 16.2347403,
    "lng": -92.1339541,
    "nombre": "BETHEL",
    "zona_id": "9ab54285-a79b-4f70-9ec0-68d3d1269112",
    "zona_nombre": "ZONA VERDE"
  },
  {
    "id": "2c174874-63ad-401c-8dd5-39b089c30273",
    "lat": 16.2431301,
    "lng": -92.1217041,
    "nombre": "BONAMPAK",
    "zona_id": "2cf9680e-0227-4899-b7ab-b36867720c87",
    "zona_nombre": "ZONA AZUL"
  },
  {
    "id": "4272b15f-2127-499f-89af-6eddafeca041",
    "lat": 16.2347403,
    "lng": -92.1339541,
    "nombre": "BOSQUES",
    "zona_id": "9ab54285-a79b-4f70-9ec0-68d3d1269112",
    "zona_nombre": "ZONA VERDE"
  },
  {
    "id": "b457e999-213f-4191-8d1d-ed7f853d9707",
    "lat": 16.2379796,
    "lng": -92.1588384,
    "nombre": "Bosques de Comitán",
    "zona_id": "2cf9680e-0227-4899-b7ab-b36867720c87",
    "zona_nombre": "ZONA AZUL"
  },
  {
    "id": "b17e7d06-0374-4553-b38c-44d55eea220b",
    "lat": 16.2379796,
    "lng": -92.1588384,
    "nombre": "Bosques de Comitán 2a Sección",
    "zona_id": "2cf9680e-0227-4899-b7ab-b36867720c87",
    "zona_nombre": "ZONA AZUL"
  },
  {
    "id": "43f9cd0d-3d28-494d-9a4a-272d3ad837ef",
    "lat": 16.2382022,
    "lng": -92.1550008,
    "nombre": "Bosques de Comitán 3a Sección",
    "zona_id": "2cf9680e-0227-4899-b7ab-b36867720c87",
    "zona_nombre": "ZONA AZUL"
  },
  {
    "id": "e0fb7cb3-ad67-4632-a700-f31623aae761",
    "lat": 16.228925,
    "lng": -92.1456384,
    "nombre": "Buenavista",
    "zona_id": "2cf9680e-0227-4899-b7ab-b36867720c87",
    "zona_nombre": "ZONA AZUL"
  },
  {
    "id": "1a7a9b0b-a4bd-4bf8-82f9-896b713fe09f",
    "lat": 16.2668895,
    "lng": -92.134897,
    "nombre": "Bugambilias",
    "zona_id": null,
    "zona_nombre": null
  },
  {
    "id": "9461541d-41fc-4940-9091-4d86e51f4dbf",
    "lat": 16.2431301,
    "lng": -92.1217041,
    "nombre": "Burócratas",
    "zona_id": "2cf9680e-0227-4899-b7ab-b36867720c87",
    "zona_nombre": "ZONA AZUL"
  },
  {
    "id": "ef12dab1-f96b-4c5e-ac14-bf45157bfe34",
    "lat": 16.2654666,
    "lng": -92.0483099,
    "nombre": "Cajcam",
    "zona_id": null,
    "zona_nombre": null
  },
  {
    "id": "6d793c2d-33fa-4f9c-9bc2-73daa3bb89cc",
    "lat": 16.2378561,
    "lng": -92.1345902,
    "nombre": "Calzada el Panteón",
    "zona_id": "9ab54285-a79b-4f70-9ec0-68d3d1269112",
    "zona_nombre": "ZONA VERDE"
  },
  {
    "id": "ccb378b9-c7d1-409a-8e5d-7ecda64eff67",
    "lat": 16.2397867,
    "lng": -92.1436434,
    "nombre": "campanario",
    "zona_id": "9ab54285-a79b-4f70-9ec0-68d3d1269112",
    "zona_nombre": "ZONA VERDE"
  },
  {
    "id": "4bdc8f7e-2cfc-4bee-83f0-98a1c3756d6c",
    "lat": 16.24819,
    "lng": -92.144353,
    "nombre": "CANDELARIA",
    "zona_id": "9ab54285-a79b-4f70-9ec0-68d3d1269112",
    "zona_nombre": "ZONA VERDE"
  },
  {
    "id": "fd86a384-1f0b-462d-80c5-c2dccbda30b5",
    "lat": 16.2639561,
    "lng": -92.0971693,
    "nombre": "Cash",
    "zona_id": "a078936b-aa3c-4f83-90cd-ecfe4a66c4c2",
    "zona_nombre": "ZONA ROJA"
  },
  {
    "id": "2c862388-e4e1-4366-a3cc-ba2c388264b7",
    "lat": 16.224982,
    "lng": -92.132526,
    "nombre": "CEDRO",
    "zona_id": "9ab54285-a79b-4f70-9ec0-68d3d1269112",
    "zona_nombre": "ZONA VERDE"
  },
  {
    "id": "a6355b46-e06d-40f1-8d73-8a17f2fa9461",
    "lat": 16.2525576,
    "lng": -92.1345902,
    "nombre": "Centro",
    "zona_id": "9ab54285-a79b-4f70-9ec0-68d3d1269112",
    "zona_nombre": "ZONA VERDE"
  },
  {
    "id": "c7e39ad9-d0f9-4f53-90a0-868aa6b1b430",
    "lat": 16.2388133,
    "lng": -92.1358427,
    "nombre": "CERRITO",
    "zona_id": "9ab54285-a79b-4f70-9ec0-68d3d1269112",
    "zona_nombre": "ZONA VERDE"
  },
  {
    "id": "ceb670ea-4306-40af-9183-7ecb9205725e",
    "lat": 16.2510552,
    "lng": -92.1194033,
    "nombre": "Cerrito Concepción",
    "zona_id": null,
    "zona_nombre": null
  },
  {
    "id": "05ad70de-d9e8-413d-986d-085b7ecd332f",
    "lat": 16.2347403,
    "lng": -92.1339541,
    "nombre": "Cerrito de la Concepcion",
    "zona_id": "9ab54285-a79b-4f70-9ec0-68d3d1269112",
    "zona_nombre": "ZONA VERDE"
  },
  {
    "id": "9396f9a1-ec0b-4179-a12c-f3e3d2864302",
    "lat": 16.2512588,
    "lng": -92.1174095,
    "nombre": "Cerrito Nitre",
    "zona_id": null,
    "zona_nombre": null
  },
  {
    "id": "2e4bbd3a-3809-4627-b2a0-178dfce198cf",
    "lat": 16.2983565,
    "lng": -92.1855573,
    "nombre": "Chacaljocom",
    "zona_id": null,
    "zona_nombre": null
  },
  {
    "id": "8b97d384-2039-4309-9d7c-47cf6f34cee0",
    "lat": 16.2163718,
    "lng": -92.1146489,
    "nombre": "Chichima",
    "zona_id": null,
    "zona_nombre": null
  },
  {
    "id": "0321531e-f200-4680-966f-6ab6d5d6d9bd",
    "lat": 16.2072118,
    "lng": -92.1000163,
    "nombre": "Chichima Acapetahua",
    "zona_id": null,
    "zona_nombre": null
  },
  {
    "id": "ecada9ca-36a3-4d17-9bbd-0d3e1621c853",
    "lat": 16.2072118,
    "lng": -92.1000163,
    "nombre": "Chichimá Acapetahua",
    "zona_id": null,
    "zona_nombre": null
  },
  {
    "id": "11de64f9-6cac-4f7f-99de-436f799f62e4",
    "lat": 16.2285751,
    "lng": -92.1069816,
    "nombre": "Chichima Benito Juárez",
    "zona_id": null,
    "zona_nombre": null
  },
  {
    "id": "1d295013-3f2e-4f52-813b-a41cd9585efe",
    "lat": 16.2151383,
    "lng": -92.1278398,
    "nombre": "Chichima Concepción",
    "zona_id": "2cf9680e-0227-4899-b7ab-b36867720c87",
    "zona_nombre": "ZONA AZUL"
  },
  {
    "id": "c6b213fa-2d0e-4bfe-b380-c1de6b97200d",
    "lat": 16.233687,
    "lng": -92.142222,
    "nombre": "CHICHIMA GUADALUPE",
    "zona_id": "9ab54285-a79b-4f70-9ec0-68d3d1269112",
    "zona_nombre": "ZONA VERDE"
  },
  {
    "id": "c4879240-6620-4a31-aca6-58d44ec0d067",
    "lat": 16.2049101,
    "lng": -92.1217041,
    "nombre": "Chichimá Guadalupe",
    "zona_id": "ccea8427-77b6-4a64-b48e-dce4b672bca5",
    "zona_nombre": "ZONA NARANJA"
  },
  {
    "id": "8b5599d0-c8ff-484b-99c1-28cf2cb49119",
    "lat": 16.253317,
    "lng": -92.1164427,
    "nombre": "CHILCAS",
    "zona_id": "72967b0a-ab24-4c9f-8002-c9c65df86a81",
    "zona_nombre": "ZONA AMARILLA"
  },
  {
    "id": "c78ca3ee-7d04-4159-881d-9e4727f90b4a",
    "lat": 16.264458,
    "lng": -92.136522,
    "nombre": "COL ESMERALDA",
    "zona_id": "72967b0a-ab24-4c9f-8002-c9c65df86a81",
    "zona_nombre": "ZONA AMARILLA"
  },
  {
    "id": "fbf2d0ca-2118-46c5-a470-9886f06c69f3",
    "lat": 16.2387,
    "lng": -92.1455,
    "nombre": "COL LUIS DONALDO COLOSIO",
    "zona_id": "9ab54285-a79b-4f70-9ec0-68d3d1269112",
    "zona_nombre": "ZONA VERDE"
  },
  {
    "id": "4387c2d0-516f-4f59-8d66-e1cac61452e7",
    "lat": 16.2242429,
    "lng": -92.1361245,
    "nombre": "Colinas del Sol",
    "zona_id": "9ab54285-a79b-4f70-9ec0-68d3d1269112",
    "zona_nombre": "ZONA VERDE"
  },
  {
    "id": "08c786ae-0436-49b1-ae26-6b1dbdcbd9c1",
    "lat": 16.2347403,
    "lng": -92.1339541,
    "nombre": "Colonia",
    "zona_id": "9ab54285-a79b-4f70-9ec0-68d3d1269112",
    "zona_nombre": "ZONA VERDE"
  },
  {
    "id": "2d301bcd-31f1-44c3-8b2f-fc5ccc836b4b",
    "lat": 16.2179329,
    "lng": -92.1147256,
    "nombre": "colonia Miguel alemán",
    "zona_id": null,
    "zona_nombre": null
  },
  {
    "id": "b294951d-91f9-4956-bf33-9cebbc0a12bd",
    "lat": 16.2347403,
    "lng": -92.1339541,
    "nombre": "Colosio",
    "zona_id": "9ab54285-a79b-4f70-9ec0-68d3d1269112",
    "zona_nombre": "ZONA VERDE"
  },
  {
    "id": "19955035-6f0f-4ff3-8979-d2c0bc3ac6d7",
    "lat": 16.22165,
    "lng": -92.1333,
    "nombre": "COMITAN COLONIAL",
    "zona_id": "9ab54285-a79b-4f70-9ec0-68d3d1269112",
    "zona_nombre": "ZONA VERDE"
  },
  {
    "id": "ad473765-c434-431c-903a-5483ffa75723",
    "lat": 16.2377997,
    "lng": -92.1586585,
    "nombre": "Comitán Colonial",
    "zona_id": null,
    "zona_nombre": null
  },
  {
    "id": "1410d2fd-99b2-473f-a3fb-d2b82e9ae9a6",
    "lat": 16.2525576,
    "lng": -92.1345902,
    "nombre": "Comitán de Domínguez Centro",
    "zona_id": "9ab54285-a79b-4f70-9ec0-68d3d1269112",
    "zona_nombre": "ZONA VERDE"
  },
  {
    "id": "63fbedd0-5f54-4e56-a644-da0e7ae6e521",
    "lat": 16.22165,
    "lng": -92.1333,
    "nombre": "COMITLAN",
    "zona_id": "9ab54285-a79b-4f70-9ec0-68d3d1269112",
    "zona_nombre": "ZONA VERDE"
  },
  {
    "id": "9d2028c8-4f2b-4c3b-90f7-4f5844aa3e9f",
    "lat": 16.2347403,
    "lng": -92.1339541,
    "nombre": "Comitlán",
    "zona_id": "9ab54285-a79b-4f70-9ec0-68d3d1269112",
    "zona_nombre": "ZONA VERDE"
  },
  {
    "id": "5505539c-d552-4553-89db-21c23a9da324",
    "lat": 16.2271152,
    "lng": -92.1428761,
    "nombre": "Concepción Bella Vista",
    "zona_id": "2cf9680e-0227-4899-b7ab-b36867720c87",
    "zona_nombre": "ZONA AZUL"
  },
  {
    "id": "59ef4d02-fc23-423e-bc71-657052c31eca",
    "lat": 16.2454652,
    "lng": -92.0711158,
    "nombre": "Concepción Yocnajab",
    "zona_id": null,
    "zona_nombre": null
  },
  {
    "id": "1c9a04d8-213b-460e-8e3a-6e7d464eb333",
    "lat": 16.1651329,
    "lng": -92.0561037,
    "nombre": "Corrala",
    "zona_id": null,
    "zona_nombre": null
  },
  {
    "id": "6c6bdc66-3566-4001-8f74-0fba5458325a",
    "lat": 16.2436628,
    "lng": -92.1419553,
    "nombre": "Cristóbal Colon",
    "zona_id": "9ab54285-a79b-4f70-9ec0-68d3d1269112",
    "zona_nombre": "ZONA VERDE"
  },
  {
    "id": "f0ebb897-ae1c-4f5f-8d31-382933585b01",
    "lat": 16.2347403,
    "lng": -92.1339541,
    "nombre": "Cruz de Phastón",
    "zona_id": "9ab54285-a79b-4f70-9ec0-68d3d1269112",
    "zona_nombre": "ZONA VERDE"
  },
  {
    "id": "442ef6fb-f363-40f6-b36b-74f41ae5bd79",
    "lat": 16.238557,
    "lng": -92.116389,
    "nombre": "CRUZ GRANDE",
    "zona_id": "2cf9680e-0227-4899-b7ab-b36867720c87",
    "zona_nombre": "ZONA AZUL"
  },
  {
    "id": "f2b9aaab-8942-4281-b253-08f1cb1648bb",
    "lat": 16.256882,
    "lng": -92.143183,
    "nombre": "Cruz Grande 2a Sección",
    "zona_id": "72967b0a-ab24-4c9f-8002-c9c65df86a81",
    "zona_nombre": "ZONA AMARILLA"
  },
  {
    "id": "21c7bf62-6f48-41cb-ba41-e68826b8f480",
    "lat": 16.2486908,
    "lng": -92.1536193,
    "nombre": "Cueva",
    "zona_id": "2cf9680e-0227-4899-b7ab-b36867720c87",
    "zona_nombre": "ZONA AZUL"
  },
  {
    "id": "cd57fe74-f7d7-4d63-8ac2-43c1ccd8c67a",
    "lat": 16.2334336,
    "lng": -92.1358176,
    "nombre": "Cumpatá",
    "zona_id": "9ab54285-a79b-4f70-9ec0-68d3d1269112",
    "zona_nombre": "ZONA VERDE"
  },
  {
    "id": "2a84bed7-2b07-4494-b750-4e2c163c835d",
    "lat": 16.23215,
    "lng": -92.122437,
    "nombre": "DESAMPARADOS",
    "zona_id": "9ab54285-a79b-4f70-9ec0-68d3d1269112",
    "zona_nombre": "ZONA VERDE"
  },
  {
    "id": "7f2eea96-e23d-408e-83ef-097a59031e41",
    "lat": 16.1310882,
    "lng": -92.2279714,
    "nombre": "Doctor Manuel Velasco Suárez",
    "zona_id": null,
    "zona_nombre": null
  },
  {
    "id": "3b04bf0d-23d9-4b8d-a453-b85fc3fce9af",
    "lat": 16.3445363,
    "lng": -92.1996909,
    "nombre": "Efraín A Gutiérrez",
    "zona_id": null,
    "zona_nombre": null
  },
  {
    "id": "09a05aee-8a57-471d-b571-b5d30a24a4e4",
    "lat": 16.2347403,
    "lng": -92.1339541,
    "nombre": "Ejido",
    "zona_id": "9ab54285-a79b-4f70-9ec0-68d3d1269112",
    "zona_nombre": "ZONA VERDE"
  },
  {
    "id": "2d801526-0a8e-4c2b-abd0-060479e85a8e",
    "lat": 16.2393876,
    "lng": -92.1284535,
    "nombre": "El Arenal",
    "zona_id": "9ab54285-a79b-4f70-9ec0-68d3d1269112",
    "zona_nombre": "ZONA VERDE"
  },
  {
    "id": "1a8cb8e8-b36d-4096-ab8a-7890d8d7a6fc",
    "lat": 16.2406579,
    "lng": -92.1115818,
    "nombre": "El Bethel",
    "zona_id": null,
    "zona_nombre": null
  },
  {
    "id": "78ac18f3-a7eb-4d02-a04f-23bcae5e9237",
    "lat": 16.2539909,
    "lng": -92.1382726,
    "nombre": "El Calvario",
    "zona_id": "9ab54285-a79b-4f70-9ec0-68d3d1269112",
    "zona_nombre": "ZONA VERDE"
  },
  {
    "id": "e45e4bb8-a712-4900-a4a3-9863db585243",
    "lat": 16.2632568,
    "lng": -92.1306012,
    "nombre": "El Cedro",
    "zona_id": null,
    "zona_nombre": null
  },
  {
    "id": "bcb04d73-3ca6-40d1-8105-4dd2dc8d7c45",
    "lat": 16.2397962,
    "lng": -92.1559718,
    "nombre": "El Cerrito Nitre 2a Sección",
    "zona_id": "2cf9680e-0227-4899-b7ab-b36867720c87",
    "zona_nombre": "ZONA AZUL"
  },
  {
    "id": "a520bb72-f42d-49d8-b8b4-4b986eafb086",
    "lat": 16.408474,
    "lng": -92.2570389,
    "nombre": "El Durazno",
    "zona_id": null,
    "zona_nombre": null
  },
  {
    "id": "961d8f9c-2fc0-4c7f-b902-e0472e783d45",
    "lat": 16.2377329,
    "lng": -92.1468661,
    "nombre": "EL HERRAJE",
    "zona_id": "9ab54285-a79b-4f70-9ec0-68d3d1269112",
    "zona_nombre": "ZONA VERDE"
  },
  {
    "id": "12c6569c-5251-4780-b6e3-ef8a12d7a67b",
    "lat": 16.261252,
    "lng": -92.1289137,
    "nombre": "El Jordán",
    "zona_id": null,
    "zona_nombre": null
  },
  {
    "id": "76a3bb1f-d945-4cc1-b11b-dd9e0792971f",
    "lat": 16.2393092,
    "lng": -92.1113777,
    "nombre": "El Laurel",
    "zona_id": "72967b0a-ab24-4c9f-8002-c9c65df86a81",
    "zona_nombre": "ZONA AMARILLA"
  },
  {
    "id": "0e9ce8de-c15c-4c93-a2d0-0c05a46400ed",
    "lat": 16.2179329,
    "lng": -92.1147256,
    "nombre": "El Milagro",
    "zona_id": null,
    "zona_nombre": null
  },
  {
    "id": "952628b3-ff1d-41b2-b326-509c5b710667",
    "lat": 16.2575615,
    "lng": -92.1487078,
    "nombre": "El Mirador",
    "zona_id": "72967b0a-ab24-4c9f-8002-c9c65df86a81",
    "zona_nombre": "ZONA AMARILLA"
  },
  {
    "id": "bc2f9b0a-e308-4e27-94d1-56d4da0a21f1",
    "lat": 16.245,
    "lng": -92.131,
    "nombre": "El Piedrón",
    "zona_id": "9ab54285-a79b-4f70-9ec0-68d3d1269112",
    "zona_nombre": "ZONA VERDE"
  },
  {
    "id": "83c1e740-a4c3-420f-9b24-71de36076c91",
    "lat": 16.243085,
    "lng": -92.118968,
    "nombre": "EL ROSARIO",
    "zona_id": null,
    "zona_nombre": null
  },
  {
    "id": "5c7fdc6e-05a7-4e99-b103-aeafce73cf18",
    "lat": 16.2319021,
    "lng": -92.1419553,
    "nombre": "El Rosario Yocnajab",
    "zona_id": "9ab54285-a79b-4f70-9ec0-68d3d1269112",
    "zona_nombre": "ZONA VERDE"
  },
  {
    "id": "f18115c3-3a8c-47be-9411-9c27fab0c9c2",
    "lat": 16.2470168,
    "lng": -92.137352,
    "nombre": "El Veinticinco",
    "zona_id": "9ab54285-a79b-4f70-9ec0-68d3d1269112",
    "zona_nombre": "ZONA VERDE"
  },
  {
    "id": "3300a826-821c-4cd3-ab89-caaa3a943071",
    "lat": 16.2163718,
    "lng": -92.1146489,
    "nombre": "ENTRONQUE CHICHIMA",
    "zona_id": null,
    "zona_nombre": null
  },
  {
    "id": "7718c386-8052-46e3-8b1e-fecb6ad53383",
    "lat": 16.2350509,
    "lng": -92.1193129,
    "nombre": "Esmeralda",
    "zona_id": "9ab54285-a79b-4f70-9ec0-68d3d1269112",
    "zona_nombre": "ZONA VERDE"
  },
  {
    "id": "2d1557b4-4735-4419-9b3c-beea64ccf948",
    "lat": 16.2373428,
    "lng": -92.1440252,
    "nombre": "Esthela Morales",
    "zona_id": "9ab54285-a79b-4f70-9ec0-68d3d1269112",
    "zona_nombre": "ZONA VERDE"
  },
  {
    "id": "48ed5c09-0bef-46f0-a908-08b1c4e4a544",
    "lat": 16.2349874,
    "lng": -92.1457918,
    "nombre": "FOVISSSTE Chiapas 94",
    "zona_id": "9ab54285-a79b-4f70-9ec0-68d3d1269112",
    "zona_nombre": "ZONA VERDE"
  },
  {
    "id": "e9656b85-9625-4c1c-ba9c-69bbfc25354e",
    "lat": 16.2349874,
    "lng": -92.1457918,
    "nombre": "FOVISSSTE las Flores",
    "zona_id": "9ab54285-a79b-4f70-9ec0-68d3d1269112",
    "zona_nombre": "ZONA VERDE"
  },
  {
    "id": "85abec05-4827-4292-9094-c58726231daf",
    "lat": 16.2349874,
    "lng": -92.1457918,
    "nombre": "FOVISSTE",
    "zona_id": "9ab54285-a79b-4f70-9ec0-68d3d1269112",
    "zona_nombre": "ZONA VERDE"
  },
  {
    "id": "b26a6917-1203-4b7f-b61e-94d0f50ca477",
    "lat": 16.239756,
    "lng": -92.159441,
    "nombre": "FRACC 28 DE AGOSTO",
    "zona_id": "2cf9680e-0227-4899-b7ab-b36867720c87",
    "zona_nombre": "ZONA AZUL"
  },
  {
    "id": "c15e0377-3297-4f35-b536-993adad6ef9c",
    "lat": 16.2179,
    "lng": -92.1147,
    "nombre": "FRACC 9 ESTRELLAS",
    "zona_id": null,
    "zona_nombre": null
  },
  {
    "id": "e124d684-d281-4415-a5d8-2899b15aabf3",
    "lat": 16.239708,
    "lng": -92.149686,
    "nombre": "FRACC LAS FLORES",
    "zona_id": "9ab54285-a79b-4f70-9ec0-68d3d1269112",
    "zona_nombre": "ZONA VERDE"
  },
  {
    "id": "c45b9405-3e8c-4dac-84f5-afbd33aa90ca",
    "lat": 16.2269,
    "lng": -92.1152,
    "nombre": "FRACC LOS LAGOS",
    "zona_id": "72967b0a-ab24-4c9f-8002-c9c65df86a81",
    "zona_nombre": "ZONA AMARILLA"
  },
  {
    "id": "781a3e82-6e0b-4e05-bf3a-c54cdfddf02e",
    "lat": 16.240762,
    "lng": -92.131008,
    "nombre": "FRACC LOS PINOS",
    "zona_id": "9ab54285-a79b-4f70-9ec0-68d3d1269112",
    "zona_nombre": "ZONA VERDE"
  },
  {
    "id": "62242a4a-fa51-46b8-bc9e-df2ae4c4ae33",
    "lat": 16.2446,
    "lng": -92.1539,
    "nombre": "FRACC MAYA",
    "zona_id": "2cf9680e-0227-4899-b7ab-b36867720c87",
    "zona_nombre": "ZONA AZUL"
  },
  {
    "id": "de2b4df2-d23d-4d60-99dc-6cbddf9b4443",
    "lat": 16.2383,
    "lng": -92.154,
    "nombre": "FRACC PRADO",
    "zona_id": "2cf9680e-0227-4899-b7ab-b36867720c87",
    "zona_nombre": "ZONA AZUL"
  },
  {
    "id": "1121966a-9955-4f83-9010-c5fdf61c18ea",
    "lat": 16.2409,
    "lng": -92.1237,
    "nombre": "FRACC TERRAZAS",
    "zona_id": "9ab54285-a79b-4f70-9ec0-68d3d1269112",
    "zona_nombre": "ZONA VERDE"
  },
  {
    "id": "d68fae43-52c6-4ae2-a12c-812b4e0b27ce",
    "lat": 16.2347,
    "lng": -92.134,
    "nombre": "FRACC TUCANES",
    "zona_id": "9ab54285-a79b-4f70-9ec0-68d3d1269112",
    "zona_nombre": "ZONA VERDE"
  },
  {
    "id": "58b7f64e-e6b1-42a9-9f48-7aa81e16e20b",
    "lat": 16.2347403,
    "lng": -92.1339541,
    "nombre": "Fraccionamiento",
    "zona_id": "9ab54285-a79b-4f70-9ec0-68d3d1269112",
    "zona_nombre": "ZONA VERDE"
  },
  {
    "id": "2c9cf50f-629e-4c61-8501-7d05c84ad177",
    "lat": 16.2454727,
    "lng": -92.1447176,
    "nombre": "fraccionamiento fraccionamiento El chumis",
    "zona_id": "9ab54285-a79b-4f70-9ec0-68d3d1269112",
    "zona_nombre": "ZONA VERDE"
  },
  {
    "id": "48069657-fbdb-4266-a452-7c8087f0dfd7",
    "lat": 16.0522199,
    "lng": -92.2180598,
    "nombre": "Francisco J Mújica",
    "zona_id": null,
    "zona_nombre": null
  },
  {
    "id": "8c5770de-adb7-4970-91f8-96077f207851",
    "lat": 16.1580599,
    "lng": -92.1041699,
    "nombre": "Francisco Sarabia",
    "zona_id": null,
    "zona_nombre": null
  },
  {
    "id": "6ca9195f-f689-47b8-9945-fc1709e72348",
    "lat": 16.2594141,
    "lng": -92.1325248,
    "nombre": "GAS VILLATORO",
    "zona_id": null,
    "zona_nombre": null
  },
  {
    "id": "22a7f51a-9afb-442d-963e-9f2717a2f3cd",
    "lat": 16.250204,
    "lng": -92.1399414,
    "nombre": "Guadalupe",
    "zona_id": "9ab54285-a79b-4f70-9ec0-68d3d1269112",
    "zona_nombre": "ZONA VERDE"
  },
  {
    "id": "70a04be9-55a2-4d95-8197-d7d2a1388cd6",
    "lat": 16.2116013,
    "lng": -92.0383407,
    "nombre": "Guadalupe Quistaj",
    "zona_id": null,
    "zona_nombre": null
  },
  {
    "id": "16648e91-c13d-4d74-91ac-ca82e31949ba",
    "lat": 16.2841141,
    "lng": -92.2119846,
    "nombre": "Hidalgo",
    "zona_id": null,
    "zona_nombre": null
  },
  {
    "id": "41a37737-e9c0-4be0-b5c4-e197860873bf",
    "lat": 16.2456672,
    "lng": -92.1436434,
    "nombre": "INFONAVIT",
    "zona_id": "9ab54285-a79b-4f70-9ec0-68d3d1269112",
    "zona_nombre": "ZONA VERDE"
  },
  {
    "id": "5063bd5a-b481-486e-a127-dd52e11be831",
    "lat": 16.2456672,
    "lng": -92.1436434,
    "nombre": "INFONAVIT Belisario Domínguez",
    "zona_id": "9ab54285-a79b-4f70-9ec0-68d3d1269112",
    "zona_nombre": "ZONA VERDE"
  },
  {
    "id": "17856f2a-868c-45a7-96e4-c5d140df37df",
    "lat": 16.2431301,
    "lng": -92.1217041,
    "nombre": "Jacarandas",
    "zona_id": "2cf9680e-0227-4899-b7ab-b36867720c87",
    "zona_nombre": "ZONA AZUL"
  },
  {
    "id": "e25825f7-656f-49f8-8b42-7b0c14f9293d",
    "lat": 16.2179329,
    "lng": -92.1147256,
    "nombre": "Jatón",
    "zona_id": null,
    "zona_nombre": null
  },
  {
    "id": "51ab9c56-f269-455f-82b5-dfa399770cb6",
    "lat": 16.2625523,
    "lng": -92.127533,
    "nombre": "Jerusalem",
    "zona_id": null,
    "zona_nombre": null
  },
  {
    "id": "e10095be-b7d7-40f5-b0a9-7e1f0c633266",
    "lat": 16.243338,
    "lng": -92.113501,
    "nombre": "JERUSALEN",
    "zona_id": null,
    "zona_nombre": null
  },
  {
    "id": "21a8d3dd-5f9a-425c-91bd-7d6a21411b30",
    "lat": 16.23215,
    "lng": -92.122437,
    "nombre": "JESUSITO",
    "zona_id": "9ab54285-a79b-4f70-9ec0-68d3d1269112",
    "zona_nombre": "ZONA VERDE"
  },
  {
    "id": "5195a941-c959-46cc-af66-142428547426",
    "lat": 16.2431301,
    "lng": -92.1217041,
    "nombre": "Jocote",
    "zona_id": "2cf9680e-0227-4899-b7ab-b36867720c87",
    "zona_nombre": "ZONA AZUL"
  },
  {
    "id": "5b0fa1c8-4d5c-4be5-85ca-3c0471bba39b",
    "lat": 16.261252,
    "lng": -92.1289137,
    "nombre": "JORDAN",
    "zona_id": null,
    "zona_nombre": null
  },
  {
    "id": "0374735d-8ac4-4547-aad0-6b2cae583e4b",
    "lat": 16.231513,
    "lng": -92.1441037,
    "nombre": "Joyas del Pedregal",
    "zona_id": "9ab54285-a79b-4f70-9ec0-68d3d1269112",
    "zona_nombre": "ZONA VERDE"
  },
  {
    "id": "12650b76-2990-4fdd-8c88-acc4bff9ecbc",
    "lat": 16.2179329,
    "lng": -92.1147256,
    "nombre": "Joyas el Pedregal",
    "zona_id": null,
    "zona_nombre": null
  },
  {
    "id": "25cefb3f-f4f2-4c94-96ce-5f6ac6ca3e71",
    "lat": 16.1909384,
    "lng": -92.0852135,
    "nombre": "Juan Sabines Guerrero",
    "zona_id": null,
    "zona_nombre": null
  },
  {
    "id": "336e37a5-470e-4686-8b85-c838490a85f4",
    "lat": 16.2347403,
    "lng": -92.1339541,
    "nombre": "Jusnajab",
    "zona_id": "9ab54285-a79b-4f70-9ec0-68d3d1269112",
    "zona_nombre": "ZONA VERDE"
  },
  {
    "id": "cdf7a195-760e-424c-82cb-518fc97a1591",
    "lat": 16.263052,
    "lng": -92.133932,
    "nombre": "LA COCA",
    "zona_id": "72967b0a-ab24-4c9f-8002-c9c65df86a81",
    "zona_nombre": "ZONA AMARILLA"
  },
  {
    "id": "06e96265-f568-4de2-b400-3d873cfddcd2",
    "lat": 16.2486908,
    "lng": -92.1536193,
    "nombre": "La Cueva",
    "zona_id": "2cf9680e-0227-4899-b7ab-b36867720c87",
    "zona_nombre": "ZONA AZUL"
  },
  {
    "id": "3158a4ac-53e0-4ab9-a664-6e2d21ccb96f",
    "lat": 16.169577,
    "lng": -92.052428,
    "nombre": "La Esperanza",
    "zona_id": null,
    "zona_nombre": null
  },
  {
    "id": "1dee80cb-13ff-433d-b236-e078c286fb97",
    "lat": 16.5097199,
    "lng": -92.3105599,
    "nombre": "La Floresta",
    "zona_id": null,
    "zona_nombre": null
  },
  {
    "id": "0d348a3d-57e2-423e-b7c9-8b1d6a738f17",
    "lat": 16.2179329,
    "lng": -92.1147256,
    "nombre": "La Merced",
    "zona_id": null,
    "zona_nombre": null
  },
  {
    "id": "b06f611d-9822-468d-a5d5-7614db689a97",
    "lat": 16.4401699,
    "lng": -92.302607,
    "nombre": "La Palmira",
    "zona_id": null,
    "zona_nombre": null
  },
  {
    "id": "a04f3863-8bb8-4477-a545-4478335352fe",
    "lat": 16.2555103,
    "lng": -92.1333628,
    "nombre": "La Pila",
    "zona_id": "9ab54285-a79b-4f70-9ec0-68d3d1269112",
    "zona_nombre": "ZONA VERDE"
  },
  {
    "id": "8dfb0961-0bcc-4cf2-8578-dde0125c0875",
    "lat": 16.244952,
    "lng": -92.132921,
    "nombre": "LA PILETA",
    "zona_id": "9ab54285-a79b-4f70-9ec0-68d3d1269112",
    "zona_nombre": "ZONA VERDE"
  },
  {
    "id": "1ca569f8-6e38-4a61-b34e-4fc798dbffff",
    "lat": 16.2570419,
    "lng": -92.1272262,
    "nombre": "La Pilita Seca",
    "zona_id": null,
    "zona_nombre": null
  },
  {
    "id": "9cb2047f-ee00-47b8-9af9-9f3f66a6062b",
    "lat": 16.2511051,
    "lng": -92.1314908,
    "nombre": "LA POPULAR",
    "zona_id": "9ab54285-a79b-4f70-9ec0-68d3d1269112",
    "zona_nombre": "ZONA VERDE"
  },
  {
    "id": "1e306344-a431-4cbb-aed9-26d325081ced",
    "lat": 16.2523848,
    "lng": -92.1517774,
    "nombre": "LA REPRESA",
    "zona_id": "72967b0a-ab24-4c9f-8002-c9c65df86a81",
    "zona_nombre": "ZONA AMARILLA"
  },
  {
    "id": "1a772a2f-a18a-4510-bcd9-3181f7479ccd",
    "lat": 16.4197199,
    "lng": -92.25972,
    "nombre": "Laguna Larga",
    "zona_id": null,
    "zona_nombre": null
  },
  {
    "id": "4bdfe178-a450-486b-afb7-ff3d371d5e79",
    "lat": 16.2431301,
    "lng": -92.1217041,
    "nombre": "Las Chilcas",
    "zona_id": "2cf9680e-0227-4899-b7ab-b36867720c87",
    "zona_nombre": "ZONA AZUL"
  },
  {
    "id": "28ac4684-690d-43ee-9849-a2324a410e4d",
    "lat": 16.2402716,
    "lng": -92.1502426,
    "nombre": "Las Flores",
    "zona_id": "9ab54285-a79b-4f70-9ec0-68d3d1269112",
    "zona_nombre": "ZONA VERDE"
  },
  {
    "id": "987fad01-10a7-41ba-927f-0fd5d3c75a5a",
    "lat": 16.2347403,
    "lng": -92.1339541,
    "nombre": "Las Granjas",
    "zona_id": "9ab54285-a79b-4f70-9ec0-68d3d1269112",
    "zona_nombre": "ZONA VERDE"
  },
  {
    "id": "7c405b45-0d05-47bb-9db4-97995873f1e2",
    "lat": 16.263308,
    "lng": -92.1346669,
    "nombre": "Las Lajitas",
    "zona_id": "72967b0a-ab24-4c9f-8002-c9c65df86a81",
    "zona_nombre": "ZONA AMARILLA"
  },
  {
    "id": "65a5f30f-43d9-4e3e-b425-e9752a04ba55",
    "lat": 16.2618099,
    "lng": -92.131931,
    "nombre": "Las Tinajas",
    "zona_id": null,
    "zona_nombre": null
  },
  {
    "id": "e06d8177-2914-41a9-8ef2-6419d80062a7",
    "lat": 16.2431301,
    "lng": -92.1217041,
    "nombre": "LATINO AMERICANA",
    "zona_id": "2cf9680e-0227-4899-b7ab-b36867720c87",
    "zona_nombre": "ZONA AZUL"
  },
  {
    "id": "953362b4-f320-474e-a6bf-40bec6239b49",
    "lat": 16.2315276,
    "lng": -92.1300539,
    "nombre": "Lázaro Cárdenas",
    "zona_id": "9ab54285-a79b-4f70-9ec0-68d3d1269112",
    "zona_nombre": "ZONA VERDE"
  },
  {
    "id": "bae22d1a-3ff2-47be-a20c-fbbaa4f19d21",
    "lat": 16.2344654,
    "lng": -92.1428761,
    "nombre": "Libertad",
    "zona_id": "9ab54285-a79b-4f70-9ec0-68d3d1269112",
    "zona_nombre": "ZONA VERDE"
  },
  {
    "id": "a9433a99-6928-4314-848b-5c0cf8514a61",
    "lat": 16.257038,
    "lng": -92.126191,
    "nombre": "LINDA VISTA",
    "zona_id": null,
    "zona_nombre": null
  },
  {
    "id": "fc192e67-3b2e-4824-a1af-37c9f22e9648",
    "lat": 16.2179329,
    "lng": -92.1147256,
    "nombre": "Lindavista",
    "zona_id": null,
    "zona_nombre": null
  },
  {
    "id": "c8bdef7b-45ed-4039-8764-a10185595683",
    "lat": 16.2357286,
    "lng": -92.145178,
    "nombre": "Lomas del Sur",
    "zona_id": "9ab54285-a79b-4f70-9ec0-68d3d1269112",
    "zona_nombre": "ZONA VERDE"
  },
  {
    "id": "4012bb7c-a90a-47eb-937a-4de637532698",
    "lat": 16.2307824,
    "lng": -92.1510695,
    "nombre": "Lomas del Valle",
    "zona_id": "2cf9680e-0227-4899-b7ab-b36867720c87",
    "zona_nombre": "ZONA AZUL"
  },
  {
    "id": "00591297-1ceb-46a4-80e1-17bc98e63980",
    "lat": 16.2471639,
    "lng": -92.1226244,
    "nombre": "Los Cipreses",
    "zona_id": null,
    "zona_nombre": null
  },
  {
    "id": "152ef7af-960e-4cbc-9abc-b336b569fb48",
    "lat": 16.2513682,
    "lng": -92.1063683,
    "nombre": "Los Desamparados",
    "zona_id": "72967b0a-ab24-4c9f-8002-c9c65df86a81",
    "zona_nombre": "ZONA AMARILLA"
  },
  {
    "id": "14c600f5-6a16-43d2-a527-3b4e0295b9b5",
    "lat": 16.2268822,
    "lng": -92.11519,
    "nombre": "Los Lagos",
    "zona_id": "72967b0a-ab24-4c9f-8002-c9c65df86a81",
    "zona_nombre": "ZONA AMARILLA"
  },
  {
    "id": "e66b2faf-5bad-4e46-8f3d-6052f0345ba9",
    "lat": 16.2239605,
    "lng": -92.1337338,
    "nombre": "Los Lagos de Montebello",
    "zona_id": "9ab54285-a79b-4f70-9ec0-68d3d1269112",
    "zona_nombre": "ZONA VERDE"
  },
  {
    "id": "b03e6872-c3aa-41f7-bc59-11a0e57284a7",
    "lat": 16.2486219,
    "lng": -92.1238515,
    "nombre": "Los Magueyes",
    "zona_id": "9ab54285-a79b-4f70-9ec0-68d3d1269112",
    "zona_nombre": "ZONA VERDE"
  },
  {
    "id": "6e842f5b-da5f-44a0-a7c3-cd0a06810c29",
    "lat": 16.2546788,
    "lng": -92.1246184,
    "nombre": "Los Olivos",
    "zona_id": null,
    "zona_nombre": null
  },
  {
    "id": "3ab1b401-d8ff-43ce-96af-f01798e527d3",
    "lat": 16.2265172,
    "lng": -92.1316444,
    "nombre": "Los Pinos",
    "zona_id": "9ab54285-a79b-4f70-9ec0-68d3d1269112",
    "zona_nombre": "ZONA VERDE"
  },
  {
    "id": "48d74cae-1142-4f09-ab86-b2e4f27605f6",
    "lat": 16.2319021,
    "lng": -92.1419553,
    "nombre": "Los Riegos",
    "zona_id": "9ab54285-a79b-4f70-9ec0-68d3d1269112",
    "zona_nombre": "ZONA VERDE"
  },
  {
    "id": "21898387-f199-4e4c-b797-74e3e6d4c6bf",
    "lat": 16.2322233,
    "lng": -92.1465592,
    "nombre": "Los Robles",
    "zona_id": "9ab54285-a79b-4f70-9ec0-68d3d1269112",
    "zona_nombre": "ZONA VERDE"
  },
  {
    "id": "1e273094-b0cc-4c9f-b57a-f5d6cc416d79",
    "lat": 16.221755,
    "lng": -92.101984,
    "nombre": "LOS SABINOS",
    "zona_id": null,
    "zona_nombre": null
  },
  {
    "id": "14e57337-0e23-45be-86e3-1e5fb01628e2",
    "lat": 16.2386657,
    "lng": -92.1454849,
    "nombre": "Luis Donaldo Colosio",
    "zona_id": "9ab54285-a79b-4f70-9ec0-68d3d1269112",
    "zona_nombre": "ZONA VERDE"
  },
  {
    "id": "173c719a-bd90-463d-9f65-e5a6199349fc",
    "lat": 16.2525034,
    "lng": -92.1328782,
    "nombre": "Magisterial Issstech",
    "zona_id": "9ab54285-a79b-4f70-9ec0-68d3d1269112",
    "zona_nombre": "ZONA VERDE"
  },
  {
    "id": "f0fbf65c-e28c-4b75-8c40-4d0978307836",
    "lat": 16.23215,
    "lng": -92.122437,
    "nombre": "MAGUEYES",
    "zona_id": "9ab54285-a79b-4f70-9ec0-68d3d1269112",
    "zona_nombre": "ZONA VERDE"
  },
  {
    "id": "8eb819f2-133e-44fb-ae72-9ef007d91e6d",
    "lat": 16.231497,
    "lng": -92.131146,
    "nombre": "MARIANO N RUIZ",
    "zona_id": "9ab54285-a79b-4f70-9ec0-68d3d1269112",
    "zona_nombre": "ZONA VERDE"
  },
  {
    "id": "cd79d349-a8dc-4492-94e9-d4cd7157e30d",
    "lat": 16.2255136,
    "lng": -92.11925,
    "nombre": "Mariano N Ruíz",
    "zona_id": "72967b0a-ab24-4c9f-8002-c9c65df86a81",
    "zona_nombre": "ZONA AMARILLA"
  },
  {
    "id": "cf75c143-d63c-4ecb-b987-1acedc9815bb",
    "lat": 16.229133,
    "lng": -92.1288063,
    "nombre": "Mariano Ruiz",
    "zona_id": "9ab54285-a79b-4f70-9ec0-68d3d1269112",
    "zona_nombre": "ZONA VERDE"
  },
  {
    "id": "6fcd5641-ae29-40fa-af5c-558a38c4e4c6",
    "lat": 16.2446448,
    "lng": -92.1539263,
    "nombre": "Maya",
    "zona_id": "2cf9680e-0227-4899-b7ab-b36867720c87",
    "zona_nombre": "ZONA AZUL"
  },
  {
    "id": "5eca3475-85b4-42d8-af8b-741d298a081d",
    "lat": 16.246638,
    "lng": -92.127125,
    "nombre": "MICROONDAS",
    "zona_id": "9ab54285-a79b-4f70-9ec0-68d3d1269112",
    "zona_nombre": "ZONA VERDE"
  },
  {
    "id": "70d1d40b-d43f-400b-8cc5-113d41a4d661",
    "lat": 16.246463,
    "lng": -92.1190919,
    "nombre": "MIRAMAR",
    "zona_id": null,
    "zona_nombre": null
  },
  {
    "id": "dac1fc82-7af0-42c7-8657-c7e25dee746b",
    "lat": 16.229668,
    "lng": -92.145081,
    "nombre": "MONTE VERDE",
    "zona_id": "9ab54285-a79b-4f70-9ec0-68d3d1269112",
    "zona_nombre": "ZONA VERDE"
  },
  {
    "id": "2a1e4f99-39e8-4885-a766-092b662055c2",
    "lat": 16.2400183,
    "lng": -92.1388864,
    "nombre": "Nicalocok",
    "zona_id": "9ab54285-a79b-4f70-9ec0-68d3d1269112",
    "zona_nombre": "ZONA VERDE"
  },
  {
    "id": "b7f3cf63-3b72-42d6-992f-318d11daa9a4",
    "lat": 16.2400183,
    "lng": -92.1388864,
    "nombre": "NICALOKOCK",
    "zona_id": "9ab54285-a79b-4f70-9ec0-68d3d1269112",
    "zona_nombre": "ZONA VERDE"
  },
  {
    "id": "45578150-21aa-40a3-87aa-a4dc18bd4776",
    "lat": 16.2532039,
    "lng": -92.1339605,
    "nombre": "Nueve Estrellas",
    "zona_id": "9ab54285-a79b-4f70-9ec0-68d3d1269112",
    "zona_nombre": "ZONA VERDE"
  },
  {
    "id": "2d834f8d-e646-48b3-b3bd-d930ff8685cd",
    "lat": 16.2665804,
    "lng": -92.1335116,
    "nombre": "Nuevo Belén",
    "zona_id": "72967b0a-ab24-4c9f-8002-c9c65df86a81",
    "zona_nombre": "ZONA AMARILLA"
  },
  {
    "id": "3d4b6d5e-b737-4e53-9dd4-f1e0102a9ae7",
    "lat": 16.2422311,
    "lng": -92.1492825,
    "nombre": "ORQUIDEAS",
    "zona_id": "9ab54285-a79b-4f70-9ec0-68d3d1269112",
    "zona_nombre": "ZONA VERDE"
  },
  {
    "id": "b2a56d37-f654-4e5a-8c8c-d57490ea1c68",
    "lat": 16.2406265,
    "lng": -92.1312953,
    "nombre": "Panteón Municipal",
    "zona_id": "9ab54285-a79b-4f70-9ec0-68d3d1269112",
    "zona_nombre": "ZONA VERDE"
  },
  {
    "id": "48b6c5e4-0b58-4e31-a946-12a684f8c13b",
    "lat": 16.2179329,
    "lng": -92.1147256,
    "nombre": "Paraíso Chichima",
    "zona_id": null,
    "zona_nombre": null
  },
  {
    "id": "8962dd6e-2114-4651-be3c-baae2bc8cb13",
    "lat": 16.2431301,
    "lng": -92.1217041,
    "nombre": "Paraíso Comiteco",
    "zona_id": "2cf9680e-0227-4899-b7ab-b36867720c87",
    "zona_nombre": "ZONA AZUL"
  },
  {
    "id": "7bc31f48-a57d-4c46-83b6-6fd28d19d49d",
    "lat": 16.2393412,
    "lng": -92.1532136,
    "nombre": "PASHTON",
    "zona_id": "9ab54285-a79b-4f70-9ec0-68d3d1269112",
    "zona_nombre": "ZONA VERDE"
  },
  {
    "id": "4fde541f-c97a-42c7-946b-86c974d71543",
    "lat": 16.2357185,
    "lng": -92.1643651,
    "nombre": "PASHTON ACAPULCO",
    "zona_id": "72967b0a-ab24-4c9f-8002-c9c65df86a81",
    "zona_nombre": "ZONA AMARILLA"
  },
  {
    "id": "6049f1cc-9c7d-46f8-9341-2e35a9fb23fc",
    "lat": 16.256882,
    "lng": -92.1248133,
    "nombre": "Paz",
    "zona_id": null,
    "zona_nombre": null
  },
  {
    "id": "d05e757f-b6a6-452c-a82a-2f368f3ab22f",
    "lat": 16.2555103,
    "lng": -92.1333628,
    "nombre": "PILA",
    "zona_id": "9ab54285-a79b-4f70-9ec0-68d3d1269112",
    "zona_nombre": "ZONA VERDE"
  },
  {
    "id": "698bbf77-15db-4ea6-876f-667a005b67bd",
    "lat": 16.2555103,
    "lng": -92.1333628,
    "nombre": "PILITA",
    "zona_id": "9ab54285-a79b-4f70-9ec0-68d3d1269112",
    "zona_nombre": "ZONA VERDE"
  },
  {
    "id": "47f3c0ff-996d-489a-ba3c-27fb50aa3467",
    "lat": 16.239708,
    "lng": -92.149686,
    "nombre": "PLAZA LAS FLORES",
    "zona_id": "9ab54285-a79b-4f70-9ec0-68d3d1269112",
    "zona_nombre": "ZONA VERDE"
  },
  {
    "id": "e2a3c243-0e10-465c-a29f-f5129368aabd",
    "lat": 16.2319021,
    "lng": -92.1419553,
    "nombre": "Popular Comitán",
    "zona_id": "9ab54285-a79b-4f70-9ec0-68d3d1269112",
    "zona_nombre": "ZONA VERDE"
  },
  {
    "id": "34b27425-d26b-48de-91f8-a17508214598",
    "lat": 16.2229615,
    "lng": -92.1490237,
    "nombre": "Portal de Hierro",
    "zona_id": "2cf9680e-0227-4899-b7ab-b36867720c87",
    "zona_nombre": "ZONA AZUL"
  },
  {
    "id": "67f22480-627f-4040-ad82-f39a9c8d5aa4",
    "lat": 16.2554457,
    "lng": -92.0652942,
    "nombre": "Pozo Nuevo",
    "zona_id": null,
    "zona_nombre": null
  },
  {
    "id": "815aa989-e459-4bbb-a416-67dd4647d460",
    "lat": 16.2383013,
    "lng": -92.1540324,
    "nombre": "Prado",
    "zona_id": "2cf9680e-0227-4899-b7ab-b36867720c87",
    "zona_nombre": "ZONA AZUL"
  },
  {
    "id": "f7719255-373d-4800-99e4-2923507e7a83",
    "lat": 16.2333967,
    "lng": -92.1395002,
    "nombre": "Primero De Mayo",
    "zona_id": "9ab54285-a79b-4f70-9ec0-68d3d1269112",
    "zona_nombre": "ZONA VERDE"
  },
  {
    "id": "2879bb63-41ae-4844-9f4b-c09da10deb75",
    "lat": 16.2347403,
    "lng": -92.1339541,
    "nombre": "Pueblo",
    "zona_id": "9ab54285-a79b-4f70-9ec0-68d3d1269112",
    "zona_nombre": "ZONA VERDE"
  },
  {
    "id": "72d988cc-1df8-47f9-8990-10232cb421c7",
    "lat": 16.228838,
    "lng": -92.133455,
    "nombre": "PUENTE HIDALGO",
    "zona_id": "9ab54285-a79b-4f70-9ec0-68d3d1269112",
    "zona_nombre": "ZONA VERDE"
  },
  {
    "id": "8189a25d-e256-4a0b-99bb-9b1d1a084406",
    "lat": 16.2347403,
    "lng": -92.1339541,
    "nombre": "Ranchería",
    "zona_id": "9ab54285-a79b-4f70-9ec0-68d3d1269112",
    "zona_nombre": "ZONA VERDE"
  },
  {
    "id": "52d87ac7-4638-4bbe-90ce-df838e4ff13e",
    "lat": 16.2429823,
    "lng": -92.1379358,
    "nombre": "Residencial las Flores",
    "zona_id": "9ab54285-a79b-4f70-9ec0-68d3d1269112",
    "zona_nombre": "ZONA VERDE"
  },
  {
    "id": "170e7064-0a88-4e68-b1e5-0721f6d077db",
    "lat": 16.291484,
    "lng": -92.1172274,
    "nombre": "Río Grande",
    "zona_id": null,
    "zona_nombre": null
  },
  {
    "id": "7405a886-3413-47ff-b5d3-2f5a07e61ff5",
    "lat": 16.2435692,
    "lng": -92.118592,
    "nombre": "ROSARIO",
    "zona_id": null,
    "zona_nombre": null
  },
  {
    "id": "9c0c4643-c4c9-4ff9-9528-1a7000eb0a7d",
    "lat": 16.2212129,
    "lng": -92.1082083,
    "nombre": "Sabinos",
    "zona_id": null,
    "zona_nombre": null
  },
  {
    "id": "8ef05ab3-24cd-45cb-bd51-9f57db63d7bd",
    "lat": 16.2431301,
    "lng": -92.1217041,
    "nombre": "Salubridad",
    "zona_id": "2cf9680e-0227-4899-b7ab-b36867720c87",
    "zona_nombre": "ZONA AZUL"
  },
  {
    "id": "f8369a07-7b59-474c-b53c-8e98672d0a02",
    "lat": 16.238185,
    "lng": -92.153874,
    "nombre": "SAN AGUSTIN",
    "zona_id": "2cf9680e-0227-4899-b7ab-b36867720c87",
    "zona_nombre": "ZONA AZUL"
  },
  {
    "id": "0ab86046-d6c2-4d7a-97de-45ab8f7441e7",
    "lat": 16.2526435,
    "lng": -92.125999,
    "nombre": "San Agustín",
    "zona_id": "9ab54285-a79b-4f70-9ec0-68d3d1269112",
    "zona_nombre": "ZONA VERDE"
  },
  {
    "id": "5ceda54c-6576-46e6-bb71-3e0bc85350cf",
    "lat": 16.260538,
    "lng": -92.130616,
    "nombre": "SAN ANTONIO",
    "zona_id": null,
    "zona_nombre": null
  },
  {
    "id": "59534ef0-1671-4339-ae1f-ba281cc1a31b",
    "lat": 16.2347403,
    "lng": -92.1339541,
    "nombre": "San Francisco",
    "zona_id": "9ab54285-a79b-4f70-9ec0-68d3d1269112",
    "zona_nombre": "ZONA VERDE"
  },
  {
    "id": "070212f2-f5fe-4fa2-b5f5-c5dcb2584865",
    "lat": 16.2794244,
    "lng": -92.1312149,
    "nombre": "San Francisco el Rincón",
    "zona_id": null,
    "zona_nombre": null
  },
  {
    "id": "1d71407b-c603-4883-a711-6910c877b049",
    "lat": 16.2870957,
    "lng": -92.1104231,
    "nombre": "San Isidro Tinajab",
    "zona_id": null,
    "zona_nombre": null
  },
  {
    "id": "8d66d70c-b426-42b6-be91-dfce6dbee814",
    "lat": 16.236856,
    "lng": -92.133143,
    "nombre": "SAN JOSE",
    "zona_id": "9ab54285-a79b-4f70-9ec0-68d3d1269112",
    "zona_nombre": "ZONA VERDE"
  },
  {
    "id": "e37307c6-8054-46fc-9a1c-cb283392afea",
    "lat": 16.2492528,
    "lng": -92.1342833,
    "nombre": "San José",
    "zona_id": "9ab54285-a79b-4f70-9ec0-68d3d1269112",
    "zona_nombre": "ZONA VERDE"
  },
  {
    "id": "99893ca9-2129-4e75-8c03-86b8fd609844",
    "lat": 16.2522903,
    "lng": -92.0873591,
    "nombre": "San José Yocnajab",
    "zona_id": null,
    "zona_nombre": null
  },
  {
    "id": "0d85cf60-b6fc-4de8-9228-6df95c5feda1",
    "lat": 16.4090752,
    "lng": -92.2899635,
    "nombre": "San Juan",
    "zona_id": null,
    "zona_nombre": null
  },
  {
    "id": "48e0a075-c5e3-4826-a482-d9306109ec4e",
    "lat": 16.244917,
    "lng": -92.154127,
    "nombre": "SAN MARTIN",
    "zona_id": "2cf9680e-0227-4899-b7ab-b36867720c87",
    "zona_nombre": "ZONA AZUL"
  },
  {
    "id": "8554dbb8-f3bc-4f34-bd16-cc36d8a50e99",
    "lat": 16.2435018,
    "lng": -92.1579173,
    "nombre": "San Martín",
    "zona_id": "2cf9680e-0227-4899-b7ab-b36867720c87",
    "zona_nombre": "ZONA AZUL"
  },
  {
    "id": "77dbde7a-4510-4842-959a-9d1a2aeac783",
    "lat": 16.264376,
    "lng": -92.137236,
    "nombre": "SAN MIGUEL",
    "zona_id": "ccea8427-77b6-4a64-b48e-dce4b672bca5",
    "zona_nombre": "ZONA NARANJA"
  },
  {
    "id": "2c56c010-a0ff-40e9-b504-cd380f6cd80c",
    "lat": 16.2819751,
    "lng": -92.1033462,
    "nombre": "San Miguel Tinajab",
    "zona_id": null,
    "zona_nombre": null
  },
  {
    "id": "a99bc30c-fd27-45cd-bbb7-5385769e3690",
    "lat": 16.1667148,
    "lng": -92.1013086,
    "nombre": "San Rafael Chacaljemel",
    "zona_id": null,
    "zona_nombre": null
  },
  {
    "id": "ac1455bf-5ef3-4bb7-a784-3f0b2d8df0e5",
    "lat": 16.2974498,
    "lng": -92.1267828,
    "nombre": "San Rafael Jocom",
    "zona_id": null,
    "zona_nombre": null
  },
  {
    "id": "ea6d4d69-ffe1-4de5-b83f-06fb97663a27",
    "lat": 16.2466892,
    "lng": -92.1333628,
    "nombre": "San Sebastian",
    "zona_id": "9ab54285-a79b-4f70-9ec0-68d3d1269112",
    "zona_nombre": "ZONA VERDE"
  },
  {
    "id": "bb7a0a91-a21a-4496-85c8-c2b7b4760dbe",
    "lat": 16.2466892,
    "lng": -92.1333628,
    "nombre": "San Sebastián",
    "zona_id": "9ab54285-a79b-4f70-9ec0-68d3d1269112",
    "zona_nombre": "ZONA VERDE"
  },
  {
    "id": "87593714-2509-4026-979c-fc04bcbeb0fc",
    "lat": 16.2438519,
    "lng": -92.1562384,
    "nombre": "San Vicente Buena Vista",
    "zona_id": "2cf9680e-0227-4899-b7ab-b36867720c87",
    "zona_nombre": "ZONA AZUL"
  },
  {
    "id": "0f113a36-23d0-4db4-921a-35633f394a64",
    "lat": 16.2421432,
    "lng": -92.1468661,
    "nombre": "SANTA ANA",
    "zona_id": "9ab54285-a79b-4f70-9ec0-68d3d1269112",
    "zona_nombre": "ZONA VERDE"
  },
  {
    "id": "10b1ba4c-eefc-44ef-9b02-5d6de8095c6f",
    "lat": 16.2421432,
    "lng": -92.1468661,
    "nombre": "Santa Ana Calanchuy",
    "zona_id": "9ab54285-a79b-4f70-9ec0-68d3d1269112",
    "zona_nombre": "ZONA VERDE"
  },
  {
    "id": "0b909dbe-de06-4f97-838a-9ef6a3f49559",
    "lat": 16.233244,
    "lng": -92.142012,
    "nombre": "SANTA CECILIA",
    "zona_id": "9ab54285-a79b-4f70-9ec0-68d3d1269112",
    "zona_nombre": "ZONA VERDE"
  },
  {
    "id": "24c50fda-8533-4a42-ae2a-67d8be7ea724",
    "lat": 16.2396843,
    "lng": -92.1594659,
    "nombre": "Santa Cruz",
    "zona_id": "2cf9680e-0227-4899-b7ab-b36867720c87",
    "zona_nombre": "ZONA AZUL"
  },
  {
    "id": "65e2a46d-ad37-4392-bf24-3d1d7822ef08",
    "lat": 16.2549583,
    "lng": -92.124235,
    "nombre": "Santa María",
    "zona_id": null,
    "zona_nombre": null
  },
  {
    "id": "6367ec3b-75bb-40df-b5e8-1bf5978b0e04",
    "lat": 16.474935,
    "lng": -92.251347,
    "nombre": "Santa Rosalía",
    "zona_id": null,
    "zona_nombre": null
  },
  {
    "id": "188dc89a-7e54-4100-b72e-5863c40e154d",
    "lat": 16.2904372,
    "lng": -92.112079,
    "nombre": "Señor del Pozo",
    "zona_id": null,
    "zona_nombre": null
  },
  {
    "id": "51476912-693a-48bc-9c87-dbfaab5029aa",
    "lat": 16.2580863,
    "lng": -92.1330559,
    "nombre": "SIETE ESQUINAS",
    "zona_id": "9ab54285-a79b-4f70-9ec0-68d3d1269112",
    "zona_nombre": "ZONA VERDE"
  },
  {
    "id": "6612f634-b63c-46e9-b9ee-dc63fa57c960",
    "lat": 16.2431301,
    "lng": -92.1217041,
    "nombre": "Solidaridad Comiteca",
    "zona_id": "2cf9680e-0227-4899-b7ab-b36867720c87",
    "zona_nombre": "ZONA AZUL"
  },
  {
    "id": "5b8d4682-8124-4ba0-a28a-81cd42211603",
    "lat": 16.236481,
    "lng": -92.15369,
    "nombre": "TENAM",
    "zona_id": "2cf9680e-0227-4899-b7ab-b36867720c87",
    "zona_nombre": "ZONA AZUL"
  },
  {
    "id": "0f01e71a-7fd0-49a3-ba8b-6c0eb7deded3",
    "lat": 16.2631304,
    "lng": -92.1340532,
    "nombre": "Tepeyac",
    "zona_id": "72967b0a-ab24-4c9f-8002-c9c65df86a81",
    "zona_nombre": "ZONA AMARILLA"
  },
  {
    "id": "0aa4a081-bc9e-4f4d-a524-b30bb83577eb",
    "lat": 16.240892,
    "lng": -92.1236654,
    "nombre": "Terrazas",
    "zona_id": "9ab54285-a79b-4f70-9ec0-68d3d1269112",
    "zona_nombre": "ZONA VERDE"
  },
  {
    "id": "7508ae23-d457-4fb6-9c2e-0e9b86fb7255",
    "lat": 16.2431301,
    "lng": -92.1217041,
    "nombre": "Tikal",
    "zona_id": "2cf9680e-0227-4899-b7ab-b36867720c87",
    "zona_nombre": "ZONA AZUL"
  },
  {
    "id": "dfa14fff-7947-4404-a4dc-12f25aa5f70c",
    "lat": 16.2262329,
    "lng": -92.1120933,
    "nombre": "TINAJAS",
    "zona_id": null,
    "zona_nombre": null
  },
  {
    "id": "b383b5ad-9c29-438a-80f5-99b84e12f17d",
    "lat": 16.2347403,
    "lng": -92.1339541,
    "nombre": "Tucanes",
    "zona_id": "9ab54285-a79b-4f70-9ec0-68d3d1269112",
    "zona_nombre": "ZONA VERDE"
  },
  {
    "id": "e58ad62d-aed9-463c-9970-b854d9e55885",
    "lat": 16.2347403,
    "lng": -92.1339541,
    "nombre": "Unidad habitacional",
    "zona_id": "9ab54285-a79b-4f70-9ec0-68d3d1269112",
    "zona_nombre": "ZONA VERDE"
  },
  {
    "id": "93581bdb-8bcf-46de-93d2-bb33a94d2eed",
    "lat": 16.2253177,
    "lng": -92.1388864,
    "nombre": "Valle Balún Canan",
    "zona_id": "9ab54285-a79b-4f70-9ec0-68d3d1269112",
    "zona_nombre": "ZONA VERDE"
  },
  {
    "id": "6030778a-039b-44b9-8f29-8eb6915bec04",
    "lat": 16.2276135,
    "lng": -92.1374638,
    "nombre": "Valle de Sabines Guerrero",
    "zona_id": "9ab54285-a79b-4f70-9ec0-68d3d1269112",
    "zona_nombre": "ZONA VERDE"
  },
  {
    "id": "d92d0b4a-7d70-4af2-85cd-341d0abc20b9",
    "lat": 16.2431301,
    "lng": -92.1217041,
    "nombre": "Vicente Fox",
    "zona_id": "2cf9680e-0227-4899-b7ab-b36867720c87",
    "zona_nombre": "ZONA AZUL"
  },
  {
    "id": "32ca9589-468c-4fd5-8562-99e4d35db43f",
    "lat": 16.3374724,
    "lng": -92.0806347,
    "nombre": "Villahermosa Yalumá",
    "zona_id": null,
    "zona_nombre": null
  },
  {
    "id": "0e7e8105-3488-4955-856d-50053989ffaf",
    "lat": 16.2347403,
    "lng": -92.1339541,
    "nombre": "Yajalon",
    "zona_id": "9ab54285-a79b-4f70-9ec0-68d3d1269112",
    "zona_nombre": "ZONA VERDE"
  },
  {
    "id": "6e37bd19-c6bd-43c1-b362-23c0cd6b216d",
    "lat": 16.235321,
    "lng": -92.156889,
    "nombre": "YALCHIVOL",
    "zona_id": "2cf9680e-0227-4899-b7ab-b36867720c87",
    "zona_nombre": "ZONA AZUL"
  },
  {
    "id": "093ab6e5-9be8-424e-8610-510564b48c61",
    "lat": 16.2975851,
    "lng": -92.2593466,
    "nombre": "Yaltzi 3 Lagunas",
    "zona_id": null,
    "zona_nombre": null
  },
  {
    "id": "5827d9a9-6e5d-437f-9d4b-e95897655c8e",
    "lat": 16.4166699,
    "lng": -92.2052799,
    "nombre": "Zaragoza La Montaña",
    "zona_id": null,
    "zona_nombre": null
  },
  {
    "id": "76dd0364-dbb9-4037-a242-581eeb78aa10",
    "lat": 16.2347403,
    "lng": -92.1339541,
    "nombre": "Zona federal",
    "zona_id": "9ab54285-a79b-4f70-9ec0-68d3d1269112",
    "zona_nombre": "ZONA VERDE"
  },
  {
    "id": "0a0836da-c6ff-4af7-9e24-114b2e692ad6",
    "lat": 16.2132673,
    "lng": -92.1312149,
    "nombre": "Zona Militar 15 Regimiento",
    "zona_id": "2cf9680e-0227-4899-b7ab-b36867720c87",
    "zona_nombre": "ZONA AZUL"
  }
]
